[
	{
		"city": "TALLINN",

		"offices": [
			{
				"name": "Lääne-Tallinna Keskhaigla Nakkuskliinik",
				"address": "Paldiski mnt. 62",
				"information": "659 8551",
				"phone": "645 5555",
				"open_hours": "E-N 8.00–17.30, ja R 8.00–13.30", 
				"additional_info": "NB! juuni, juuli ja august on kabinet avatud: E-N 8.00–15.30 ja R 08.00–13.30"
			},
			{
				"name": "Synlab Eesti OÜ",
				"address": "Väike-Paala 1",
				"phone": "640 8211",
				"open_hours": "E–R 8.00–15.00"
			},
			{
				"name": "Synlab Eesti OÜ",
				"address": "Mardi 3",
				"phone": "5148057",
				"open_hours": "E-R 9.00–14.00"
			}
		]

	},
	{
		"city": "TARTU",

		
		"offices": [
			{
				"name": "Tartu Ülikooli Kliinikum (Nakkusosakond)",
				"address": "Riia 167",
				"phone": "742 7611",
				"open_hours": "E 10.00–13.00, T 14.00–17.00, K 8.00–11.00, N 15.00-18.00, R 10.00–13.00"
			},
			{
				"name": "Synlab Eesti OÜ",
				"address": "Gildi 8, III korrus laboris",
				"phone": "17123",
				"open_hours": "E-R 12.00–15.00"
			},
			{
				"name": "Synlab Eesti OÜ",
				"address": "Teguri 37b",
				"phone": "17123",
				"open_hours": "E-R 08.00-13.00"
			}
		]
	},
	{
		"city": "NARVA",

		"offices": [
			{
				"name": "Narva Haigla",
				"address": "Haigla 5, kabinet 14",
				"phone": "356 0304",
				"open_hours": "E 12.00–18.00, T 12.00–16.00, K 12.00–16.00, N 12.00–18.00, R 10.00–14.00"
			}
		]
	},
	{
		"city": "KOHTLA-JÄRVE",

		"offices": [
			{
				"name": "Ida-Viru Keskhaigla",
				"address": "Ilmajaama 16",
				"phone": "337 88 25",
				"open_hours": "E ja R 08.00–11.00, T ja K 15.00–18.00"
			}
		]
	},
	{
		"city": "PÄRNU",

		"offices": [
			{
			"name": "Pärnu Haigla",
			"address": "Ristiku 1, kabinet C110",
			"phone": "447 3388",
			"open_hours": "E 15.00–18.00, T 13.00–16.00, N 08.00–11.00"
			}
		]
	},
	{
		"city": "PAIDE",

		"offices": [
			{
			"name": "Järvamaa Haigla",
			"address": "Tiigi 8, B-korpus",
			"phone": "384 8178",
			"open_hours": "E 7.45–15.00 ja R 7.45–14.30"
			}
		]
	},
	{
		"city": "RAKVERE",

		"offices": [
			{
				"name": "Rakvere Haigla",
				"address": "Tuleviku 1, Kabinet 11",
				"phone": "322 3581",
				"open_hours": "E 8.00–10.00, N 16.00–18.00"
			}
		]
	},
	{
		"city": "TAMSALU",

		"offices": [
			{
				"name": "Tamsalu HIV nõustamis- ja testimiskabinet",
				"address": "Tehnika 1a",
				"phone": "325 0950",
				"open_hours": "R 8.00–11.00"
			}
		]
	},
	{
		"city": "TAPA",

		"offices": [
			{
				"name": "Tapa HIV nõustamis- ja testimiskabinet",
				"address": "Valve 30",
				"phone": "324 0891",
				"open_hours": "T 10.00–14.00"
			}
		]
	}

]






