{
	"header": "HIV Testing offices",

	"phone_text": "Phone: ",
	"address_text": "Address: ",
	"open_hours_text": "Open: ",

	"list": [
		{
			"city": "TALLINN",

			"offices": [
				{
					"name": "Lääne-Tallinna Keskhaigla Nakkuskliinik",
					"address": "Paldiski mnt. 62",
					"information": "659 8551",
					"phone": "645 5555",
					"open_hours": "Mon-Thur 8.00–17.30 and Fri 8.00–13.30", 
					"additional_info": "NB! juuni, juuli ja august on kabinet avatud: E-N 8.00–15.30 ja R 08.00–13.30",
					"link": "http://www.keskhaigla.ee/kliinikud/nakkuskliinik/hiv-noustamine-ja-testimine/"
				},
				{
					"name": "Synlab Eesti OÜ",
					"address": "Väike-Paala 1",
					"phone": "640 8211",
					"open_hours": "Mon-Fri 8.00–15.00",
					"link": "http://www.quattromed.ee/patsiendile/tasuta-testimine-ja-noustamine/"
				},
				{
					"name": "Synlab Eesti OÜ",
					"address": "Mardi 3",
					"phone": "5148057",
					"open_hours": "Mon-Fri 9.00–14.00",
					"link": "http://www.quattromed.ee/patsiendile/tasuta-testimine-ja-noustamine/"
				}
			]

		},
		{
			"city": "TARTU",

			
			"offices": [
				{
					"name": "Tartu Ülikooli Kliinikum (Nakkusosakond)",
					"address": "Riia 167",
					"phone": "742 7611",
					"open_hours": "Mon 10.00–13.00, Tues 14.00–17.00, Wed 8.00–11.00, Thur 15.00-18.00, Fri 10.00–13.00",
					"link": "http://www.kliinikum.ee/oe-vastuvott/1272-aids-anonyymne-noustamine"
				},
				{
					"name": "Synlab Eesti OÜ",
					"address": "Gildi 8, III korrus laboris",
					"phone": "17123",
					"open_hours": "Mon-Fri 12.00–15.00",
					"link": "http://www.quattromed.ee/patsiendile/tasuta-testimine-ja-noustamine/"
				},
				{
					"name": "Synlab Eesti OÜ",
					"address": "Teguri 37b",
					"phone": "17123",
					"open_hours": "Mon-Fri 08.00-13.00",
					"link": "http://www.quattromed.ee/patsiendile/tasuta-testimine-ja-noustamine/"
				}
			]
		},
		{
			"city": "NARVA",

			"offices": [
				{
					"name": "Narva Haigla",
					"address": "Haigla 5, kabinet 14",
					"phone": "356 0304",
					"open_hours": "Mon 12.00–18.00, Tues 12.00–16.00, Wed 12.00–16.00, Thur 12.00–18.00, Fri 10.00–14.00",
					"link": "http://www.narvahaigla.ee/index.php?page=2475"
				}
			]
		},
		{
			"city": "KOHTLA-JÄRVE",

			"offices": [
				{
					"name": "Ida-Viru Keskhaigla",
					"address": "Ilmajaama 16",
					"phone": "337 88 25",
					"open_hours": "Mon and Fri 08.00–11.00, Tues and Wed 15.00–18.00",
					"link": "http://ivkh.ee/et/raviteenused/treatment-of-infectious-diseases.html"
				}
			]
		},
		{
			"city": "PÄRNU",

			"offices": [
				{
				"name": "Pärnu Haigla",
				"address": "Ristiku 1, kabinet C110",
				"phone": "447 3388",
				"open_hours": "Mon 15.00–18.00, Tues 13.00–16.00, Thur 08.00–11.00",
				"link": "http://www.ph.ee/patsiendile_kulastajale/aidsi_noustamiskabinet"
				}
			]
		},
		{
			"city": "PAIDE",

			"offices": [
				{
				"name": "Järvamaa Haigla",
				"address": "Tiigi 8, B-korpus",
				"phone": "384 8178",
				"open_hours": "Mon 7.45–15.00 and Fri 7.45–14.30",
				"link": "http://jmh.ee/?page_id=98"
				}
			]
		},
		{
			"city": "RAKVERE",

			"offices": [
				{
					"name": "Rakvere Haigla",
					"address": "Tuleviku 1, Kabinet 11",
					"phone": "322 3581",
					"open_hours": "Mon 8.00–10.00, Thur 16.00–18.00",
					"link": "http://www.rh.ee/index.php?page=269"
				}
			]
		},
		{
			"city": "TAMSALU",

			"offices": [
				{
					"name": "Tamsalu HIV nõustamis- ja testimiskabinet",
					"address": "Tehnika 1a",
					"phone": "325 0950",
					"open_hours": "Fri 8.00–11.00",
					"link": "http://www.rh.ee/index.php?page=269"
				}
			]
		},
		{
			"city": "TAPA",

			"offices": [
				{
					"name": "Tapa HIV nõustamis- ja testimiskabinet",
					"address": "Valve 30",
					"phone": "324 0891",
					"open_hours": "Tues 10.00–14.00",
					"link": "http://www.rh.ee/index.php?page=269"
				}
			]
		}
	]
}






